Site Name,Site Code,latitude,longitude,Verified?
ABHA - Abham Substation,ABHA,50.4716733,-3.7309283,Yes
ABNE - ABERNETHY Substation,ABNE,56.34005,-3.296951,Yes
ABTH - Aberthaw Substation,ABTH,51.3883366,-3.4032144,Yes
AIKE - AIKENGALL Substation,AIKE,55.90854,-2.486718,Yes
ALDW - Aldwarke Substation,ALDW,53.4455045,-1.320594,Yes
ALNE - ALNESS GSP Substation,ALNE,57.708211,-4.275356,Yes
ALPHA STEEL,ALST,51.547018,-2.978565,Yes
ALVE - Alverdiscott Substation,ALVE,51.0059049,-4.1364787,Yes
ALYT - ALYTH Substation,ALYT,56.609016,-3.165107,Yes
AMEM - Amersham Substation,AMEM,51.6651594,-0.65634,Yes
ANSU - AN SUIDHE Substation,ANSU,56.197996,-5.14562,Yes
ARBR - ARBROATH Substation,ARBR,56.564183,-2.620188,Yes
ARCR - ARECLEOCH REPOWERING Substation,ARCR,56.514357,-3.042757,Yes
ARDK - ARDKINGLAS WIND Substation,ARDK,56.277184,-4.921811,Yes
AREC - ARECLEOCH Substation,AREC,55.084333,-4.850995,Yes
ARMO - ARDMORE Substation,ARMO,57.554442,-6.644721,Yes
AUCH - AUCHENCROSH Substation,AUCH,55.070687,-4.980101,Yes
AUCW - AUCHENWYND Substation,AUCW,55.34216,-4.684377,Yes
AXMI - Axminster Substation,AXMI,50.7864998,-2.9246377,Yes
AYR- - AYR Substation,AYR-,55.457495,-4.588131,Yes
BACT - Bacton Substation,BACT,52.660393,0.793521,Yes
BAGA - BATHGATE Substation,BAGA,55.900172,-3.673399,Yes
BAGB - Baglan Bay Substation,BAGB,51.6169976,-3.8324675,Yes
BAIN - BAINSFORD Substation,BAIN,56.014275,-3.768765,Yes
BALA - BALALLAN Substation,BALA,52.920078,-3.586147,Yes
BARK - Barking Substation,BARK,51.5226033,0.115365,Yes
BARW - Barking West Substation,BARW,51.520169,0.115479,Yes
BASW - HORNSEA OFFSHORE Substation,BASW,53.658389,-0.262696,Yes
BEAU - BEAULY Substation,BEAU,57.469928,-4.490033,Yes
BEDD - Beddington Substation,BEDD,51.3725629,-0.1264688,Yes
BEDT - Beddington Tee Substation,BEDT,51.37295,-0.12795,Yes
BEIN - BEINNEUN WIND FARM Substation,BEIN,57.153938,-4.870129,Yes
BENR - Bengeworth Road Substation,BENR,51.465772,-0.098387,Yes
BERB - BERRY BURN Substation,BERB,57.504065,-3.600101,Yes
BERW - BERWICK Substation,BERW,55.777719,-2.077726,Yes
BESW - Berkswell Substation,BESW,52.3858536,-1.615489,Yes
BHLA - BHLARAIDH WIND FARM Substation,BHLA,57.24461,-4.703979,Yes
BICF - Bickerfen Substation,BICF,52.9308108,-0.2211776,Yes
BIRK - Birkenhead Substation,BIRK,53.3657481,-3.0627474,Yes
BISW - Bishops Wood Substation,BISW,52.3121115,-2.2416907,Yes
BLAH - BLACKHILL Substation,BLAH,57.52177,-2.951524,Yes
BLCW - BLACKCRAIG Substation,BLCW,55.129098,-4.057185,Yes
BLHI - BLACKHILLOCK Substation,BLHI,57.525091,-2.948363,Yes
BLLX - BLACKLAW EXTENSION Substation,BLLX,55.792632,-3.73789,Yes
BLYT - Blyth Substation,BLYT,55.1411626,-1.5306015,Yes
BOAG - BOAT OF GARTEN Substation,BOAG,57.254132,-3.731713,Yes
BODE - Bodelwyddan Substation,BODE,53.25014,-3.4761171,Yes
BOLN - Bolney Substation,BOLN,50.9752306,-0.2350781,Yes
BONN - BONNYBRIDGE Substation,BONN,56.007832,-3.860677,Yes
BOSO - BARROW ONSHORE Substation,BOSO,54.123869,-3.230005,Yes
BOTW - Botley Wood Substation,BOTW,50.8845066,-1.2320607,Yes
BPGR - BP GRANGEMOUTH Substation,BPGR,51.560406,-3.75458,Yes
BRAI - Braintree Substation,BRAI,51.8649112,0.576343,Yes
BRAP - BRAEHEAD PARK Substation,BRAP,55.881269,-4.381463,Yes
BRAW - Bradford West Substation,BRAW,53.8105001,-1.8653484,Yes
BRCW - BRACO WEST Substation,BRCW,56.261285,-3.947062,Yes
BREC - BRECHIN Substation,BREC,56.740051,-2.628735,Yes
BRED - Bredbury Substation,BRED,53.4145467,-2.1289257,Yes
BRFO - Bramford Substation,BRFO,52.0713149,1.0621494,Yes
BRIM - Brimsdown Substation,BRIM,51.6635045,-0.0249397,Yes
BRIN - Brinsworth Substation,BRIN,53.4014942,-1.3520318,Yes
BRLE - Bramley Substation,BRLE,51.336092,-1.0773424,Yes
BRNX - BRANXTON Substation,BRNX,55.948527,-2.416819,Yes
BROA - BROADFORD Substation,BROA,53.802946,-1.752569,Yes
BROC - BROKEN CROSS Substation,BROC,51.921883,-2.590319,Yes
BROR - BRORA Substation,BROR,58.020209,-3.875536,Yes
BROX - BROXBURN Substation,BROX,55.919644,-3.454493,Yes
BRWA - Bridgwater Substation,BRWA,51.117323,-2.9689897,Yes
BULL - Bulls Lodge,BULL,51.765916,0.537433,Yes
BUMU - BURGHMUIR Substation,BUMU,56.396931,-3.488546,Yes
BURW - Burwell Main Substation,BURW,52.2800743,0.3121167,Yes
BUSB - BUSBY Substation,BUSB,55.774545,-4.263804,Yes
BUSH - Bushbury Substation,BUSH,52.6362292,-2.1147683,Yes
BUST - Bustleholme Substation,BUST,52.5528971,-1.9640488,Yes
CAAD - CARRADALE Substation,CAAD,55.590296,-5.503449,Yes
CAFA - CARSFAD Substation,CAFA,55.143392,-4.189622,Yes
CAIN - CAIRNFORD Substation,CAIN,57.452452,-2.849738,Yes
CAMA - Cambridge Arms Substation,CAMA,51.474513,-2.610276,Yes
CAML - Camblesforth Substation,CAML,53.7294667,-1.0008175,Yes
CANT - Canterbury Substation,CANT,51.2923333,1.0941425,Yes
CAPE - Capenhurst Substation,CAPE,53.2687725,-2.9492216,Yes
CARE - Cardiff East Substation,CARE,51.4947919,-3.1454226,Yes
CARL - CARLISLE Substation,CARL,54.899248,-2.958369,Yes
CARR - Carrington Substation,CARR,53.4362675,-2.4071607,Yes
CASS - CASSLEY Substation,CASS,58.187379,-4.729653,Yes
CCSS - CUMBERHEAD COLLECTOR Substation,CCSS,55.582355,-3.925907,Yes
CEFC - Cefn Croes Substation,CEFC,52.412793,-3.755093,Yes
CELL - Cellarhead Substation,CELL,53.0408884,-2.0826093,Yes
CHAP - CHAPELCROSS Substation,CHAP,55.016718,-3.230973,Yes
CHAR - CHARLESTON Substation,CHAR,56.473239,-3.045498,Yes
CHAS - CHARLOTTE STREET Substation,CHAS,51.131238,-2.753458,Yes
CHIC - Chickerell Substation,CHIC,50.6246451,-2.4865271,Yes
CHIL - Chilling Substation,CHIL,50.821745,-1.32857,Yes
CHSI - Chessington Substation,CHSI,51.3441149,-0.3227094,Yes
CHTE - Chesterfield Substation,CHTE,53.2245523,-1.3888986,Yes
Unknown - from ETYS,CHUE,51.490805,0.3119,Yes
CILF - Cilfynydd Substation,CILF,51.6359308,-3.3002428,Yes
CITR - City Road Substation,CITR,51.5301876,-0.0957412,Yes
CLAY - CLAYHILLS Substation,CLAY,57.14037,-2.09921,Yes
CLEH - Cleve Hill Substation,CLEH,51.33821,0.9403402,Yes
CLTO - Clacton Substation,CLTO,51.824923,1.180027,Yes
CLUN - CLUNIE Substation,CLUN,56.717358,-3.783803,Yes
CLYM - CLYDE'S MILL Substation,CLYM,55.82234,-4.147249,Yes
COAL - COALBURN Substation,COAL,55.616293,-3.868363,Yes
COAT - COATBRIDGE Substation,COAT,55.851041,-4.012535,Yes
COCK - COCKENZIE Substation,COCK,55.96732,-2.967959,Yes
COGA - CORRIEGARTH WIND FARM Substation,COGA,57.19239,-4.401717,Yes
CONN - CONNAGILL Substation,CONN,58.513089,-3.880142,Yes
CONQ - Connahs Quay Substation,CONQ,53.2299029,-3.0739134,Yes
CORI - CORRIEMOILLIE Substation,CORI,57.633927,-4.770315,Yes
COSO - Coryton South Substation,COSO,51.512869,0.5067038,Yes
COTT - Cottam Substation,COTT,53.3007371,-0.7812314,Yes
COUA - COUPAR ANGUS Substation,COUA,56.538325,-3.274364,Yes
COVE - Coventry Substation,COVE,52.4564638,-1.4637597,Yes
COWL - Cowley Substation,COWL,51.7115242,-1.1905126,Yes
Unknown - from ETYS,COWT,51.4635,-3.4483,Yes
COYL - COYLTON Substation,COYL,55.447272,-4.433423,Yes
CRAI - CRAIGIEBUCKLER Substation,CRAI,57.131363,-2.15516,Yes
CRAR - CRARAE Substation,CRAR,56.131476,-5.265569,Yes
CRBB - CREYKE BECK B Substation,CRBB,53.800779,-0.417285,Yes
CRCK - CARRICK Substation,CRCK,54.712826,-5.845723,Yes
CREA - CREAG RIABHACH WINDFARM Substation,CREA,58.210945,-4.504422,Yes
CREB - Creyke Beck Substation,CREB,53.8006736,-0.4152764,Yes
CROO - CROOKSTON Substation,CROO,55.821218,-4.36564,Yes
CRSS - CROSSAIG Substation,CRSS,55.697574,-5.458941,Yes
CRUA - CRUACHAN Substation,CRUA,56.402589,-5.113106,Yes
CRYR - CRYSTAL RIG Substation,CRYR,55.914414,-2.540878,Yes
CULJ - Culham Jet Substation,CULJ,51.661185,-1.2283331,Yes
CULL - CULLIGRAN Substation,CULL,57.425697,-4.702586,Yes
CUMB - CUMBERNAULD Substation,CUMB,55.94679,-3.963214,Yes
CUPA - CUPAR Substation,CUPA,56.313635,-3.036693,Yes
CURR - CURRIE Substation,CURR,55.903585,-3.309707,Yes
DAAS - DALLAS SUBSTATION Substation,DAAS,57.556853,-3.420952,Yes
DAIN - Daines Substation,DAIN,53.4257165,-2.3790951,Yes
DALL - DALMALLY Substation,DALL,56.419297,-5.013252,Yes
DALM - DALMARNOCK Substation,DALM,55.835675,-4.202754,Yes
DAMC - Damhead Creek Substation,DAMC,51.4243519,0.5986603,Yes
DENN - DENNY NORTH Substation,DENN,56.041114,-3.890352,Yes
DESA - DERSALLOCH Substation,DESA,55.319511,-4.470275,Yes
DEVM - DEVOL MOOR Substation,DEVM,55.915043,-4.708201,Yes
DEVO - DEVONSIDE Substation,DEVO,56.137529,-3.780472,Yes
DEWP - DEWAR PLACE Substation,DEWP,55.947299,-3.210496,Yes
DIDC - Didcot Substation,DIDC,51.6255894,-1.2592372,Yes
DINO - Dinorwig Substation,DINO,53.1214799,-4.1000743,Yes
DISS - Diss Substation,DISS,52.373583,1.123509,Yes
DLCH - DALCHORK Substation,DLCH,58.05275,-4.403321,Yes
DONO - DOUGLAS NORTH COLLECTOR Substation,DONO,55.591663,-3.833201,Yes
DORE - DORENELL WIND FARM Substation,DORE,57.378498,-3.099156,Yes
DOUN - DOUNREAY Substation,DOUN,58.575171,-3.754186,Yes
DRAK - Drakelow Substation,DRAK,52.7737995,-1.6530489,Yes
DRAX - Drax Substation,DRAX,53.73623,-0.9924143,Yes
DRCR - DRUMCROSS Substation,DRCR,55.906367,-3.58658,Yes
DRUM - DRUMCHAPEL Substation,DRUM,55.915856,-4.348515,Yes
DUBE - DUNBEATH Substation,DUBE,58.265436,-3.434883,Yes
DUDH - DUDHOPE Substation,DUDH,56.463057,-2.978537,Yes
DUGR - DUNVEGAN GRID Substation,DUGR,57.432803,-6.540024,Yes
DUMF - DUMFRIES Substation,DUMF,55.067177,-3.59154,Yes
DUNB - DUNBAR Substation,DUNB,55.977683,-2.573862,Yes
DUNF - DUNFERMLINE Substation,DUNF,56.089209,-3.450254,Yes
DUNG - Dungeness Substation,DUNG,50.9149978,0.9474265,Yes
DUNH - DUNHILL Substation,DUNH,55.313081,-4.204373,Yes
DUNM - DUNMAGLASS Substation,DUNM,57.271178,-4.307108,Yes
DUNO - DUNOON Substation,DUNO,55.975839,-4.94853,Yes
DYCE - DYCE Substation,DYCE,57.216223,-2.190244,Yes
EAAW - EAST ANGLIA ONE OFFSHORE Substation,EAAW,52.074381,1.055105,Yes
EACS - East Anglia Coastal Substation Substation,EACS,51.798486,1.152197,Yes
EALI - Ealing Substation,EALI,51.501853,-0.2961377,Yes
EASO - Eaton Socon Substation,EASO,52.214647,-0.3016446,Yes
EAST - EARLSTOUN Substation,EAST,55.112317,-4.174227,Yes
ECCF - ECCLEFECHAN Substation,ECCF,55.06615,-3.285258,Yes
ECCL - ECCLES Substation,ECCL,55.67,-2.331565,Yes
ECLA - East Claydon Substation,ECLA,51.9262506,-0.907189,Yes
EDIN - EDINBANE 132/33KV Substation,EDIN,54.611714,-5.88401,Yes
EERH - EASTERHOUSE Substation,EERH,55.878703,-4.07267,Yes
EGGB - Eggborough Substation,EGGB,53.7134214,-1.1297638,Yes
EKIL - EAST KILBRIDE Substation,EKIL,55.786395,-4.194066,Yes
EKIS - EAST KILBRIDE SOUTH Substation,EKIS,55.740211,-4.163565,Yes
ELDE - ELDERSLIE Substation,ELDE,55.840778,-4.464261,Yes
ELGI - ELGIN Substation,ELGI,57.664204,-3.320743,Yes
ELLA - Elland Substation,ELLA,53.6938903,-1.8237307,Yes
ELST - Elstree Substation,ELST,51.661503,-0.3453766,Yes
ELVA - ELVANFOOT Substation,ELVA,55.438186,-3.67154,Yes
ENDE - Enderby Substation,ENDE,52.5976328,-1.2170178,Yes
ERRO - ERROCHTY Substation,ERRO,56.707473,-4.009644,Yes
ERSK - ERSKINE Substation,ERSK,55.903641,-4.482831,Yes
EWEH - EWE HILL Substation,EWEH,55.142486,-3.178808,Yes
EXET - Exeter Substation,EXET,50.7675723,-3.4051929,Yes
FAAR - FARR WINDFARM Substation,FAAR,57.336285,-4.160997,Yes
FALL - FALLAGO Substation,FALL,55.825461,-2.666797,Yes
FARI - FARIGAIG Substation,FARI,57.318325,-4.37464,Yes
FASN - FASNAKYLE Substation,FASN,57.330051,-4.79346,Yes
FAUG - FORT AUGUSTUS Substation,FAUG,57.136582,-4.719937,Yes
FAWL - Fawley Substation,FAWL,50.821745,-1.32857,Yes
FECK - Feckenham Substation,FECK,52.2499244,-1.9719288,Yes
Unknown - from ETYS,FENW,53.63945,-1.102475,Yes
FERRB - Ferrybridge B Substation,FERR,53.7172745,-1.284908,Yes
FETT - FETTERESSO Substation,FETT,56.965452,-2.349122,Yes
FFES - Ffestiniog Substation,FFES,52.9807405,-3.9690136,Yes
FIDD - FIDDES Substation,FIDD,56.924453,-2.302584,Yes
FIDF - Fiddlers Ferry Substation,FIDF,53.3712945,-2.6891076,Yes
FLEE - Fleet Substation,FLEE,51.2512879,-0.8833587,Yes
FLIB - Flintshire Bridge Converter Station,FLIB,53.238309,-3.04548,Yes
FOUR - Fourstones Substation,FOUR,55.0118266,-2.1641879,Yes
FOUX - Four Crosses Substation,FOUX,52.761055,-3.086444,Yes
FOYE - FOYERS Substation,FOYE,57.269073,-4.474314,Yes
FRAS - FRASERBURGH Substation,FRAS,57.685868,-2.024427,Yes
FRIN - Friston North Substation,FRIN,52.197598,1.529533,Yes
FRIS - Friston Substation,FRIS,52.197598,1.529533,Yes
FROD - Frodsham Substation,FROD,53.3087308,-2.7159515,Yes
FWIL - FORT WILLIAM Substation,FWIL,56.820386,-5.077876,Yes
FYRI - FYRISH Substation,FYRI,57.700105,-4.300092,Yes
GALA - GALASHIELS Substation,GALA,55.610934,-2.77189,Yes
GARF - Gran Fach Substation,GARF,51.775571,-4.127404,Yes
Unknown - from ETYS,GART,53.6437,-0.7254893,Yes
GAWH - GALAWHISTLE Substation,GAWH,55.562523,-3.946686,Yes
GLAG - GLENAGNES Substation,GLAG,56.46207,-2.996252,Yes
GLAP - GLEN APP Substation,GLAP,55.022516,-5.006034,Yes
GLEN - GLENMORISTON Substation,GLEN,57.201815,-4.720236,Yes
GLFA - GLENFARCLAS Substation,GLFA,57.415687,-3.315832,Yes
GLGL - GLENGLASS Substation,GLGL,55.337547,-4.017594,Yes
GLKO - GLEN KYLLACHY Substation,GLKO,57.315202,-4.087834,Yes
GLLE - GLENLEE Substation,GLLE,55.099586,-4.18552,Yes
GLLU - GLENLUCE Substation,GLLU,54.881992,-4.807106,Yes
GLNI - GLENNISTON Substation,GLNI,56.111388,-3.272049,Yes
GLRO - GLENROTHES Substation,GLRO,56.206833,-3.200275,Yes
GORG - GORGIE Substation,GORG,55.936106,-3.236463,Yes
GORW - GORDONBUSH WINDFARM Substation,GORW,58.114908,-3.957234,Yes
GOVA - GOVAN Substation,GOVA,55.854905,-4.316883,Yes
GRAI - Grain Substation,GRAI,51.4450543,0.7157852,Yes
GRAN - Grange Substation,GRAN,51.5629203,-3.7539296,Yes
GRAW - Grain West Substation,GRAW,51.45666,0.701111,Yes
GREN - Grendon Substation,GREN,52.2431171,-0.7289407,Yes
GRIW - Grimsby West Substation,GRIW,53.5652673,-0.152361,Yes
GRMO - GRANGEMOUTH Substation,GRMO,56.005047,-3.694644,Yes
GRNA - GRETNA Substation,GRNA,55.032228,-3.052049,Yes
Unknown - from ETYS,GRSA,54.566021,-1.123563,Yes
Unknown - from ETYS,GRSB,54.566021,-1.123563,Yes
GRST - Greystones Substation,GRST,54.5752847,-1.1247447,Yes
GRTO - Grangetown Substation,GRTO,54.5805217,-1.1487554,Yes
GUNS - GUNFLEET SANDS OFFSHORE Substation,GUNS,51.252201,-0.884545,Yes
GWYNEDD,GWYN,53.180981,-4.148713,Yes
GWYO - GWYNT-Y-MOR ONSHORE Substation,GWYO,53.297567,-3.5722,Yes
HACK - Hackney Substation,HACK,51.5589262,-0.0443504,Yes
HADH - HADYARD HILL Substation,HADH,55.250427,-4.707509,Yes
HAGR - HAGGS ROAD Substation,HAGR,55.828558,-4.295503,Yes
HAKB - Harker Boundary Node,HAKB,55.030361,-3.033059,Yes
Unknown - from ETYS,HAMB,53.8788231,-2.9878141,Yes
HAMH - Hams Hall Substation,HAMH,52.5309938,-1.7142918,Yes
HARE - HARESTANES Substation,HARE,55.264258,-3.560821,Yes
HARG - Harker Gis Substation,HARG,54.942014,-2.962722,Yes
HARI - HARRIS Substation,HARI,57.845931,-6.830434,Yes
HARK - Harker Substation,HARK,54.9410775,-2.9615709,Yes
HARM - Hartmoor Substation,HARM,54.7005081,-1.2920325,Yes
HATL - Hartlepool Substation,HATL,54.6356729,-1.1832389,Yes
HAWI - HAWICK Substation,HAWI,55.433061,-2.801475,Yes
HAWP - Hawthorn Pit Substation,HAWP,54.8053626,-1.403082,Yes
HEDO - Hedon Substation,HEDO,53.7475082,-0.2343553,Yes
HELE - HELENSBURGH Substation,HELE,56.022599,-4.708721,Yes
HEND - Hendon Substation,HEND,51.594816,-0.2582889,Yes
HEYS - Heysham Substation,HEYS,54.032282,-2.8911079,Yes
HIBU - Highbury Substation,HIBU,51.5613916,-0.1136958,Yes
HIGM - High Marnham Substation,HIGM,53.2279517,-0.7957371,Yes
HIGH MARNHAM SUBSTATION-B,HIMB,53.2279517,-0.7957371,Yes
HINP - Hinkley Point  Substation,HINP,51.207773,-3.127703,Yes
HUER - HUNTERSTON Substation,HUER,55.719882,-4.892719,Yes
HUMR - Humber Refinery Substation,HUMR,53.6384121,-0.2384869,Yes
HUMW - HUMBER GATEWAY OFFSHORE Substation,HUMW,53.658526,0.252814,Yes
HUNE - HUNTERSTON EAST Substation,HUNE,55.719925,-4.888264,Yes
HUNN - HUNTERSTON NORTH Substation,HUNN,55.721005,-4.886425,Yes
HURS - Hurst Substation,HURS,51.4326858,0.1546016,Yes
HUTT - Hutton Substation,HUTT,54.2975133,-2.6709277,Yes
IMPP - Imperial Park Substation,IMPP,51.5479116,-3.0309116,Yes
INCE - Ince Substation,INCE,53.2777592,-2.8111899,Yes
INDQ - Indian Queens Substation,INDQ,50.3949742,-4.8989176,Yes
INGA - INVERGARRY Substation,INGA,57.071976,-4.77368,Yes
INKE - INVERKEITHING Substation,INKE,56.042404,-3.390253,Yes
INVE - INVERARAY Substation,INVE,56.262371,-5.041287,Yes
INVR - INVERARNAN Substation,INVR,56.326075,-4.724459,Yes
IROA - Iron Acton Substation,IROA,51.5698042,-2.4807198,Yes
IRON - Ironbridge Substation,IRON,52.6319814,-2.514286,Yes
Islington,ISLI,51.5494141,-0.1146162,Yes
IVER - Iver Substation,IVER,51.5441265,-0.4988656,Yes
JOHN - JOHNSTONE Substation,JOHN,55.845725,-4.506404,Yes
JORD - Jordanthorpe Substation,JORD,53.3294925,-1.4580429,Yes
JUNCTION V,JUNV,54.9410775,-2.9615709,Yes
KAIM - KAIMES Substation,KAIM,55.892623,-3.165958,Yes
KEAD - Keadby Substation,KEAD,53.5980619,-0.756208,Yes
KEAR - Kearsley Substation,KEAR,53.5373491,-2.3584675,Yes
KEIT - KEITH Substation,KEIT,57.540349,-2.93959,Yes
KEMS - Kemsley Substation,KEMS,51.368296,0.7414657,Yes
KENG - Kensal Green Substation,KENG,51.5262136,-0.2240412,Yes
KEOO - KENDOON Substation,KEOO,55.163659,-4.191448,Yes
KERG - KERGORD Substation,KERG,60.295037,-1.272665,Yes
KIBY - Kirkby Substation,KIBY,53.4692134,-2.8477432,Yes
KIER - KILLERMONT Substation,KIER,55.903561,-4.310545,Yes
KIIN - KILLIN Substation,KIIN,56.47743,-4.330265,Yes
KILB - KILBOWIE Substation,KILB,55.918631,-4.410667,Yes
KILG - KILGALLIOCH Substation,KILG,55.05012,-4.764746,Yes
KILL - Killingholme Substation,KILL,53.6557283,-0.2572151,Yes
KILS - KILMARNOCK SOUTH Substation,KILS,55.575961,-4.46573,Yes
KILT - KILMARNOCK TOWN Substation,KILT,55.598214,-4.495533,Yes
KILW - KILWINNING Substation,KILW,55.664774,-4.68125,Yes
KINC - KINCARDINE Substation,KINC,56.074851,-3.733304,Yes
KINO - Kingsnorth Substation,KINO,51.4185692,0.5983932,Yes
KINT - KINTORE Substation,KINT,57.219714,-2.381126,Yes
KIRK - Kirkstall Substation,KIRK,53.8062487,-1.598063,Yes
KITW - Kitwell Substation,KITW,52.4307804,-2.0138725,Yes
KLYN - Kings Lynn Substation,KLYN,52.726717,0.378784,Yes
KNAR - Knaresborough Substation,KNAR,54.0312689,-1.4878477,Yes
KNOC - KNOCKNAGAEL Substation,KNOC,57.423289,-4.24606,Yes
LACK - Lackenby Substation,LACK,54.5669706,-1.1317392,Yes
LAGA - Langage Substation,LAGA,50.3890502,-4.0127325,Yes
LAIR - LAIRG Substation,LAIR,58.030448,-4.393637,Yes
LALE - Laleham Substation,LALE,51.4237679,-0.4706191,Yes
LAMB - LAMBHILL Substation,LAMB,55.903759,-4.25548,Yes
LAND - Landulph Substation,LAND,50.4450473,-4.2426418,Yes
LEGA - Legacy Substation,LEGA,53.028528,-3.0538035,Yes
LEIB - Leighton Buzzard Substation,LEIB,51.9045457,-0.677664,Yes
LEIS - Leiston Substation,LEIS,52.2080432,1.611175,Yes
LEMR - Lea Marston Substation,LEMR,52.5286693,-1.708762,Yes
LEVE - LEVEN Substation,LEVE,56.199227,-3.039718,Yes
LEWE - Lewes Substation,LEWE,50.8871,0.041464,Yes
LHOR - Little Horsted Substation,LHOR,50.941716,0.120706,Yes
LING - LIVINGSTON Substation,LING,55.88282,-3.49364,Yes
LINM - LINNMILL Substation,LINM,55.672033,-3.827138,Yes
LISD - Lister Drive Substation,LISD,53.4186288,-2.9241619,Yes
LITB - Little Barford Substation,LITB,52.204886,-0.26912,Yes
LITT - Littlebrook Substation 132,LITT,51.4646736,0.2391929,Yes
LOAN - LONGANNET Substation,LOAN,56.050522,-3.680569,Yes
LOCB - LOCH BUIDHE Substation,LOCB,57.950841,-4.277245,Yes
LOCH - LOCHAY Substation,LOCH,56.484778,-4.363949,Yes
LODR - Lodge Road (St Johns Wood),LODR,51.5275172,-0.1695604,Yes
Unknown - from ETYS,LOFI,51.398638,0.298755,Yes
LOFR - Lower Frankton Substation,LOFR,52.880128,-2.939637,Yes
LOFT - Lower Frankton Tee Substation,LOFT,52.880128,-2.939637,Yes
LORG - LORG Substation,LORG,55.234544,-4.788968,Yes
LOVE - Lovedean Substation,LOVE,50.9173848,-1.0400291,Yes
LUIC - LUICHART Substation,LUIC,57.575764,-4.689943,Yes
LYND - LYNDHURST Substation,LYND,51.431961,0.156466,Yes
MABL - Mablethorpe Substation,MABL,53.326449,0.264754,Yes
MACC - Macclesfield Substation,MACC,53.2687179,-2.1214552,Yes
MACD - MACDUFF Substation,MACD,57.663905,-2.499225,Yes
MAGA - Margam Substation,MAGA,51.5629203,-3.7539296,Yes
MAHI - MARK HILL Substation,MAHI,55.137885,-4.768147,Yes
MANN - Mannington Substation,MANN,50.8468865,-1.8960426,Yes
MARH - Market Harborough,MARH,52.464684,-0.885458,Yes
MARV - Marston Vale Substation,MARV,52.056838,-0.52585,Yes
MAWO - Marchwood Substation,MAWO,50.8983521,-1.4402315,Yes
MAYB - MAYBOLE Substation,MAYB,55.342263,-4.686195,Yes
MEAD - MEADOWHEAD Substation,MEAD,55.584282,-4.638769,Yes
Unknown - from ETYS,MEDB,55.02872,-1.792455,Yes
Unknown - from ETYS,MEDW,51.440122,0.690349,Yes
MELG - MELGARVE SUBSTATION Substation,MELG,57.028053,-4.472296,Yes
MELK - Melksham Substation,MELK,51.3945276,-2.1507655,Yes
MONK FRYSTON NEW,MFSN,53.7563338,-1.2668429,Yes
MIDL - Middleton Substation,MIDL,54.025296,-2.881284,Yes
MILC - MILTON OF CRAIGIE Substation,MILC,56.474615,-2.924592,Yes
MILH - Mill Hill Substation,MILH,51.6178861,-0.2085863,Yes
Unknown - from ETYS,MILL,52.037163,-0.525849,Yes
MILP - Milton Park Substation,MILP,51.619556,-1.296306,Yes
MINN - MINNYGAP Substation,MINN,55.256045,-3.525105,Yes
MITY - Minety Substation,MITY,51.6077549,-2.0025718,Yes
MOFF - MOFFAT Substation,MOFF,55.302211,-3.426747,Yes
MONF - Monk Fryston Substation,MONF,53.7563338,-1.2668429,Yes
MORF - MORAY EAST ONSHORE Substation,MORF,57.491239,-2.283036,Yes
MOSM - MOSSMORRAN Substation,MOSM,56.106235,-3.294144,Yes
MYBS - MYBSTER Substation,MYBS,58.447422,-3.425118,Yes
NAIR - NAIRN Substation,NAIR,57.576732,-3.847597,Yes
NEAR - NEWARTHILL Substation,NEAR,55.824793,-3.946674,Yes
NECH - Nechells Substation,NECH,52.506843,-1.8523677,Yes
NECT - Necton Substation,NECT,52.669754,0.799292,Yes
NECU - NEW CUMNOCK Substation,NECU,55.34573,-4.334556,Yes
NEDE - NEW DEER Substation,NEDE,57.492003,-2.284467,Yes
NEEP - Neepsend Substation,NEEP,53.4066924,-1.4885035,Yes
NEIL - NEILSTON Substation,NEIL,55.808314,-4.478163,Yes
NETS - NEWTON STEWART Substation,NETS,54.95289,-4.499196,Yes
NEWX - New Cross Substation,NEWX,51.4846402,-0.0595415,Yes
NFLE - Northfleet East Substation,NFLE,51.4287857,0.330308,Yes
NHYD - North Hyde Substation,NHYD,51.4999248,-0.4113956,Yes
NINF - Ninfield Substation,NINF,50.8814915,0.4477538,Yes
NORL - Norton Lees Substation,NORL,53.3485129,-1.4715193,Yes
NORM - Norwich Substation,NORM,52.5740796,1.2719315,Yes
NORT - Norton Substation,NORT,54.5928419,-1.3672756,Yes
NORWICH,NORW,52.5740796,1.2719315,Yes
NOTR - Norwich Trowse Substation,NOTR,52.6077544,1.3079125,Yes
NURS - Nursling Substation,NURS,50.9425158,-1.4866557,Yes
OBST - Osbaldwick Tee Substation,OBST,53.956585,-1.022551,Yes
OCKH - Ocker Hill Substation,OCKH,52.5419228,-2.0296509,Yes
OFFE - Offerton Substation,OFFE,54.880798,-1.4579908,Yes
OLDB - Oldbury Substation,OLDB,52.4994363,-2.0230398,Yes
OLDS - Oldbury On Severn Substation,OLDS,51.6472606,-2.5719154,Yes
ORRI - ORRIN Substation,ORRI,51.383012,-2.169422,Yes
OSBA - Osbaldwick Substation,OSBA,53.9567936,-1.0225329,Yes
OSBT - Osbaldwick Tee Substation,OSBT,53.956585,-1.022551,Yes
OVER - Overton Substation,OVER,54.003644,-1.156076,Yes
PADI - Padiham Substation 400,PADI,53.7953553,-2.321083,Yes
PAFB - Patford Bridge Substation,PAFB,52.2916052,-1.0552264,Yes
PAIS - PAISLEY Substation,PAIS,55.840247,-4.412598,Yes
PART - PARTICK Substation,PART,55.869412,-4.316155,Yes
PEHE - PETERHEAD Substation,PEHE,57.474089,-1.797549,Yes
PEHG - PETERHEAD GRANGE Substation,PEHG,57.508741,-1.806307,Yes
PELH - Pelham Substation,PELH,51.9351431,0.1186843,Yes
PEMB - Pembroke Substation,PEMB,51.6820797,-4.9904617,Yes
PENE - Penwortham East/West Substation,PENE,53.7463378,-2.7566,Yes
PENI - Penisarwaun Substation,PENI,53.154192,-4.177738,Yes
Unknown - from ETYS,PENM,53.290161,-3.574858,Yes
PENN - Penn Substation,PENN,52.5569243,-2.2097993,Yes
PENT - Pentir Substation,PENT,53.1875703,-4.1579717,Yes
PENW - Penwortham West Substation,PENW,53.744952,-2.758149,Yes
PERH - Penrhos Substation,PERH,53.2946706,-4.5985732,Yes
PERS - PERSLEY Substation,PERS,57.174656,-2.139191,Yes
PEWO - Penwortham Substation,PEWO,53.7432543,-2.7561478,Yes
PITS - Pitsmoor Substation,PITS,53.4007401,-1.4437,Yes
POAB - Pont Abraham Substation,POAB,51.747823,-4.066795,Yes
POPP - Poppleton Substation,POPP,53.9750619,-1.1316572,Yes
PORA - PORT ANN Substation,PORA,56.028608,-5.356663,Yes
PORD - PORT DUNDAS Substation,PORD,55.874116,-4.255687,Yes
PORH - Port Ham Substation,PORH,51.8791857,-2.2538966,Yes
POWO - Porters Wood  Substation,POWO,51.772627,-0.332743,Yes
PUDM - Pudding Mill Lane Substation,PUDM,51.531387,-0.014417,Yes
PURI - Puriton Tee Substation,PURI,51.169386,-2.972442,Yes
PYLE - Pyle Substation,PYLE,51.5359037,-3.687792,Yes
Unknown - from ETYS,QUER,54.047049,-2.741793,Yes
QUOI - QUOICH Substation,QUOI,57.062778,-5.123515,Yes
RAIN - Rainhill Substation,RAIN,53.4212031,-2.7388516,Yes
RANN - RANNOCH Substation,RANN,56.693274,-4.401459,Yes
RASS - Rassau Substation,RASS,51.808329,-3.226677,Yes
RATS - Ratcliffe On Soar Substation,RATS,52.8637671,-1.2559919,Yes
RAYL - Rayleigh Substation,RAYL,51.5940746,0.5664544,Yes
RAYM - Rayleigh Main Substation,RAYM,51.5936524,0.5685032,Yes
REBR - Redbridge Substation,REBR,51.5885437,0.0429943,Yes
REDH - REDHOUSE Substation,REDH,56.14607,-3.146104,Yes
REDM - REDMOSS Substation,REDM,57.108523,-2.092207,Yes
RHIG - Rhigos Substation,RHIG,51.7465632,-3.5449697,Yes
RICB - RICHBOROUGH B Substation,RICB,51.309651,1.345345,Yes
Richborough,RICH,51.31155,1.34414,Yes
ROCH - Rochdale Substation,ROCH,53.6219454,-2.2168146,Yes
ROCK - Rocksavage Substation,ROCK,53.3149759,-2.7249682,Yes
RORE - ROBIN RIGG EAST ONSHORE Substation,RORE,54.649516,-3.510431,Yes
RORW - ROBIN RIGG WEST ONSHORE Substation,RORW,54.662681,-3.547388,Yes
ROTI - ROTHIENORMAN Substation,ROTI,57.408173,-2.515934,Yes
ROWD - Rowdown Substation,ROWD,51.3519169,-0.0035626,Yes
RUGE - Rugeley Substation,RUGE,52.7566748,-1.9149739,Yes
RYEH - Rye House Substation,RYEH,51.7590371,0.0085411,Yes
RYHA - Ryhall Substation,RYHA,52.686609,-0.45843,Yes
SACO - SALTCOATS Substation,SACO,55.64673,-4.796628,Yes
SAEN - Salt End North Substation,SAEN,53.7419706,-0.2384976,Yes
SAES - Salt End South Substation,SAES,53.7371555,-0.2428977,Yes
SAFO - Sandford,SAFO,51.339276,-2.841273,Yes
SALH - Saltholme Substation,SALH,54.6055098,-1.2377826,Yes
SALL - Salle Substation,SALL,52.57327,1.27176,Yes
SASA - St Asaph Substation,SASA,53.251551,-3.477292,Yes
SEAB - Seabank Substation,SEAB,51.5371121,-2.6700204,Yes
SELL - Sellindge Substation,SELL,51.1065066,0.976096,Yes
SFEE - ST FERGUS EAST Substation,SFEE,57.57544,-1.855522,Yes
SFER - ST FERGUS Substation,SFER,57.574137,-1.849078,Yes
SHBA - South Humberbank Substation,SHBA,53.6013637,-0.1462557,Yes
SHEC - Sheffield City Substation,SHEC,53.3747289,-1.4786245,Yes
SHEE - Sheerness Substation,SHEE,51.434574,0.767132,Yes
SHIN - SHIN Substation,SHIN,57.943622,-4.414325,Yes
SHRE - Shrewsbury Substation,SHRE,52.709027,-2.6927825,Yes
SHRU - SHRUBHILL Substation,SHRU,55.965474,-3.185627,Yes
SHUR - Shurton Substation,SHUR,51.203884,-3.13685,Yes
SING - Singlewell Substation,SING,51.4050233,0.3923595,Yes
SIZE - Sizewell Substation,SIZE,52.2150044,1.616508,Yes
SJOW - St Johns Wood Substation,SJOW,51.5275172,-0.1695604,Yes
SKLG - Skelton Grange Substation,SKLG,53.7769054,-1.4968681,Yes
SLOY - SLOY Substation,SLOY,56.245548,-4.728977,Yes
SMAN - South Manchester Substation,SMAN,53.4202883,-2.2762848,Yes
SMEA - SMEATON Substation,SMEA,55.908509,-3.037632,Yes
SPAV - SPANGO VALLEY Substation,SPAV,55.937153,-4.813294,Yes
SPEN - Spennymoor Substation,SPEN,54.7055445,-1.554805,Yes
SPIT - SPITTAL Substation,SPIT,58.480125,-3.453938,Yes
SPLN - Spalding North Substation,SPLN,52.8057902,-0.1333199,Yes
SSHI - South Shields Substation,SSHI,54.9733935,-1.4494866,Yes
STAH - Stanah Substation,STAH,53.8788231,-2.9878141,Yes
STAL - Stalybridge Substation,STAL,53.493655,-2.0412602,Yes
STAY - Staythorpe Substation,STAY,53.0774926,-0.868978,Yes
STEN - Stella North Substation,STEN,54.9780659,-1.724499,Yes
STES - Stella South Substation,STES,54.974362,-1.7325261,Yes
STEW - Stella West Substation,STEW,54.9776584,-1.7422205,Yes
STHA - STRATHAVEN Substation,STHA,55.75223,-4.081786,Yes
STIR - STIRLING Substation,STIR,56.116906,-3.92004,Yes
STLE - STRATHLEVEN Substation,STLE,55.961748,-4.56281,Yes
STOB - Stoke Bardolph Substation,STOB,52.9597713,-1.0506411,Yes
STRI - STRICHEN Substation,STRI,57.58641,-2.069419,Yes
STRL - STRONELAIRG WIND FARM (SSE) Substation,STRL,57.094671,-4.433875,Yes
STSB - Stocksbridge Substation,STSB,53.487747,-1.6019806,Yes
STWB - Stella West Boundary Node,STWB,55.652386,-2.247632,Yes
STYC - Staythorpe C Substation,STYC,53.0774926,-0.868978,Yes
SUND - Sundon Substation,SUND,51.9363321,-0.5030143,Yes
SWAN - Swansea North Substation,SWAN,51.6894183,-3.9567522,Yes
TADT - Tadcaster Tee Substation,TADT,53.881023,-1.26554,Yes
TARL - TARLAND Substation,TARL,57.152177,-2.787705,Yes
TAUN - Taunton Substation,TAUN,51.0169663,-3.1551264,Yes
TAYN - TAYNUILT Substation,TAYN,56.430211,-5.214472,Yes
TEAL - TEALING Substation,TEAL,51.501918,-0.297172,Yes
TELR - TELFORD ROAD Substation,TELR,55.961832,-3.243143,Yes
TEMP - Templeborough Substation,TEMP,53.4120603,-1.3858386,Yes
THOM - Thorpe Marsh Substation,THOM,53.5755874,-1.0891464,Yes
THTO - Thornton Substation,THTO,53.900346,-0.8221173,Yes
THUR - Thurcroft Substation,THUR,53.4049216,-1.2685425,Yes
THUS - THURSO SOUTH Substation,THUS,58.563685,-3.510185,Yes
TILB - Tilbury Substation,TILB,51.4602998,0.3937219,Yes
TILN - TILBURY NORTH Substation,TILN,51.461325,0.391911,Yes
TINP - Tinsley Park Substation,TINP,53.4011496,-1.3946229,Yes
TODP - Tod Point Substation,TODP,54.606486,-1.1166973,Yes
TOMT - TOMATIN Substation,TOMT,57.301446,-4.06805,Yes
TONG - TONGLAND Substation,TONG,54.861565,-4.034444,Yes
TORN - TORNESS Substation,TORN,55.966323,-2.410999,Yes
TOTT - Tottenham Substation,TOTT,51.6045153,-0.0476486,Yes
TRAW - Trawsfynydd Substation,TRAW,52.9264028,-3.9454574,Yes
TREM - Tremorfa Substation,TREM,51.4817266,-3.130704,Yes
Unknown - from ETYS,TREU,53.11095,-3.120619,Yes
TUMM - TUMMEL Substation,TUMM,56.706809,-4.029493,Yes
TWIN - Twinstead Substation,TWIN,52.001766,0.686246,Yes
TWST - Twinstead Substation,TWST,52.001766,0.686246,Yes
TYNE - Tynemouth Substation,TYNE,55.0236892,-1.5006349,Yes
UPPB - Upper Boat Substation,UPPB,51.5740518,-3.3004189,Yes
USKM - Uskmouth Substation,USKM,51.547106,-2.9785863,Yes
WALH - Walham Substation,WALH,51.8791857,-2.2538966,Yes
WALP - Walpole Substation,WALP,52.7266087,0.198039,Yes
WALX - Waltham Cross Substation,WALX,51.7148498,-0.0111739,Yes
WARL - Warley Substation,WARL,51.5528382,0.3013681,Yes
WASF - Washway Farm Substation,WASF,53.5626018,-2.8195672,Yes
WATS - Watford South Substation,WATS,51.6430281,-0.4041122,Yes
WBOL - West Boldon Substation,WBOL,54.9401114,-1.4704043,Yes
WBUR - West Burton Substation,WBUR,53.3592,-0.8094313,Yes
WEAV - Weaver Junction Substation,WEAV,53.241712,-2.553899,Yes
WEMA - Weston Marsh Substation,WEMA,53.313641,-2.741038,Yes
WERO - WESTERMOST ROUGH ONSHORE Substation,WERO,53.804455,0.13306,Yes
WFIE - WESTFIELD Substation,WFIE,56.163611,-3.302635,Yes
WGEO - WEST GEORGE STREET Substation,WGEO,55.863114,-4.266512,Yes
WHAM - West Ham Substation,WHAM,51.5196012,0.0007427,Yes
WHGA - Whitegate Substation,WHGA,53.5287802,-2.1672396,Yes
WHHO - WHITEHOUSE Substation,WHHO,55.931106,-3.201354,Yes
WHSO - Whitson Substation,WHSO,51.5648401,-2.9086721,Yes
WHTL - WHISTLEFIELD Substation,WHTL,56.089591,-4.840147,Yes
WIBA - Wincobank Substation,WIBA,53.4158694,-1.4139102,Yes
WIEN - Willenhall Substation,WIEN,52.5778281,-2.049524,Yes
WILE - Willington East Substation,WILE,52.8556191,-1.5526581,Yes
WILL - Willington Substation,WILL,52.8554027,-1.5467397,Yes
WILT - Wilton Substation,WILT,54.5757588,-1.131802,Yes
WIMB - Wimbledon Substation,WIMB,51.4311053,-0.1891664,Yes
WIOW - WILLOWDALE Substation,WIOW,57.153871,-2.096382,Yes
WISD - Willesden Substation,WISD,51.5346202,-0.2571631,Yes
WISH - WISHAW Substation,WISH,55.764983,-3.930039,Yes
WIYH - WINDYHILL Substation,WIYH,55.931483,-4.375255,Yes
WLEE - WHITELEE Substation,WLEE,55.695506,-4.172496,Yes
WMEL - West Melton Substation,WMEL,53.5014514,-1.3769872,Yes
WOHI - WOODHILL Substation,WOHI,57.154412,-2.146853,Yes
WTHU - West Thurrock Substation,WTHU,51.4709407,0.2879999,Yes
WWEY - West Weybridge Substation,WWEY,51.3533945,-0.4795813,Yes
WYLF - Wylfa Substation,WYLF,53.4152234,-4.4802499,Yes
WYLS - WYLFA SOUTH Substation,WYLS,53.416176,-4.480566,Yes
WYMO - Wymondley Substation,WYMO,51.927188,-0.2502763,Yes
YAXL - Yaxley Substation,YAXL,52.332972,1.104614,Yes
YORK - York North Substation,YORK,53.956585,-1.022551,Yes
AIGAS HYDRO,AIGA,57.42868491,-4.57719052,No
AIGAS NORTH,AIGN,57.42868491,-4.57719052,No
AN SUIDHE NORTH,ANSN,56.197996,-5.14562,No
ARECLEOCH EXTENSION,AREX,56.514357,-3.042757,No
ARMADALE,ARMA,55.89412626,-3.69655529,No
ALYTH SOLAR AND BATTERY STORAGE,ASBS,56.609016,-3.165107,No
AYRE OFFSHORE WIND FARM,AYRE,55.457495,-4.588131,No
AYRSHIRE GRID COLLECTOR,AYRS,55.457495,-4.588131,No
BAILLIE GREENER GRID PARK,BAGP,57.08537932,-2.34646426,No
BIGGLESWADE,BIGG,52.08144281,-0.26356608,No
BLACKHILLOCK BATTERY STORAGE,BLBS,57.525091,-2.948363,No
BHLARAIDH EXTENSION,BLEX,57.24461,-4.703979,No
BLACKCRAIG SOUTH,BLKS,55.129098,-4.057185,No
BONNYBRIDGE BORDER NODE,BONB,56.007832,-3.860677,No
BARROW OFFSHORE,BOSW,54.123869,-3.230005,No
BRIDGE OF DUN,BRID,56.72016178,-2.55697061,No
BROKEN CROSS TEE,BROT,51.921883,-2.590319,No
WEST OF DUDDON SANDS ONSHORE,Ball,53.18097667,-2.72490831,No
CARNTYNE,CATY,55.85799903,-4.19698228,No
CEANNACROC,CEAN,57.15406112,-4.93694591,No
CLACHAN,CLAC,56.27743876,-4.92169457,No
CAMBUSHINNIE,CMBS,57.943622,-4.414325,No
COALBURN BATTERY STORAGE FACILITY,COAB,55.616293,-3.868363,No
COALBURN NORTH,COAN,55.616293,-3.868363,No
COALBURN BATTERY STORAGE TWO,COBA,55.616293,-3.868363,No
COACHFORD,COFD,53.38642229,-3.08607417,No
COYLTON TEE,COYT,55.447272,-4.433423,No
COYLTON WEST,COYW,55.447272,-4.433423,No
CRARAE SOUTH,CRAS,56.131476,-5.265569,No
CROSSDYKES,CRDY,51.921883,-2.590319,No
CROSSAIG NORTH,CRSN,51.921883,-2.590319,No
CULROSS,CULR,51.921883,-2.590319,No
DALMALLY BORDER NODE,DALB,56.419297,-5.013252,No
DELL,DELL,55.84799217,-4.24399122,No
DUMFRIES NORTH,DUMN,55.067177,-3.59154,No
DOUGLAS WEST EXTENSION,DWEX,55.55799643,-3.87198712,No
EAST ANGLIA ONE NORTH ONSHORE,EANO,52.074381,1.055105,No
EAST ANGLIA ONE NORTH OFFSHORE,EANW,52.074381,1.055105,No
EDAY,EDAY,59.18523258,-2.76576597,No
EREDINE,ERED,56.23539459,-5.27811699,No
FINNIESTON,FINN,55.86499574,-4.28598242,No
ORKNEY FINSTOWN,FINS,51.9240068,-1.77008634,No
GARELOCH,GARE,56.08399425,-4.83098465,No
GIFFNOCK,GIFF,55.7979933,-4.29998783,No
GLENDOE SUBSTATION,GLDO,57.14298308,-4.64493185,No
GLENROTHES BOUNDARY,GLRB,56.206833,-3.200275,No
GREMISTA,GREM,60.16663902,-1.16429986,No
GREENS,GRNS,53.48106741,-2.14769104,No
GRUDIE BRIDGE,GRUB,57.61942711,-4.83122518,No
GWYDDELWERN,GWYD,51.63360252,-3.82781026,No
HUNTERSTON BATTERY STORAGE,HBES,55.719882,-4.892719,No
HUNTERSTON ENERGY STORAGE FACILITY,HESF,55.719882,-4.892719,No
HEATHLAND,HLND,51.50689729,-3.1976146,No
HOPSRIG COLLECTOR,HORI,58.27750105,-6.30833555,No
HUNTERSTON CRYOBATTERY,HUCR,55.719882,-4.892719,No
HUNTERSTON CONVERTER STATION,HUCS,55.719882,-4.892719,No
HUMBER GATEWAY ONSHORE,HUMO,53.658526,0.252814,No
HUNTERSTON FARM,HUNF,55.719882,-4.892719,No
INVERNESS,INNE,57.45362567,-4.24657043,No
INVERARNAN BORDER NODE,INVB,56.326075,-4.724459,No
INNERWICK,INWI,58.44203861,-3.10513669,No
KEITHSHILL,KEIH,57.540349,-2.93959,No
KILLIN CASCADE GROUP,KILC,56.47743,-4.330265,No
KINLOCHLEVEN,KILO,56.199227,-3.039718,No
KINCARDINE BOUNDARY,KINB,56.074851,-3.733304,No
KINCARDINE NORTH,KINN,56.074851,-3.733304,No
KIRKTON,KRKN,55.89003407,-3.5360442,No
LAIRG SOUTH,LAIS,58.030448,-4.393637,No
LESMAHAGOW,LEGO,55.64199981,-3.8799955,No
LEVEN TEE,LEVT,56.199227,-3.039718,No
LONGSIDE,LOSD,53.46086869,-2.2189957,No
LUNANHEAD,LUNA,56.65434473,-2.86541042,No
MAYBOLE TEE,MAYT,55.342263,-4.686195,No
MOSSMORRAN SHELL,MOSH,56.106235,-3.294144,No
MOSSFORD,MOSS,53.38642229,-3.08607417,No
MOSSY HILL,MSHL,53.37526897,-2.92235161,No
NEW RYHALL,NERY,52.68832715,-0.45246694,No
NETHERTON ENERGY,NETH,53.49231875,-2.97031912,No
NORTH KYLE,NOKY,57.28098159,-5.70974152,No
OVERHILL,OHLL,53.19136878,-2.53834125,No
ORMONDE ONSHORE,ORMO,54.58530185,-1.27747721,No
ORMONDE OFFSHORE,ORMW,54.58530185,-1.27747721,No
PETERHEAD SHELL,PEHS,57.474089,-1.797549,No
PORTOBELLO,POOB,55.95399516,-3.12500226,No
ROBIN RIGG EAST OFFSHORE,RREW,54.649516,-3.510431,No
ROBIN RIGG WEST OFFSHORE,RRWW,54.662681,-3.547388,No
ST ANDREWS CROSS,SANX,51.921883,-2.590319,No
ST FERGUS GAS TERMINAL,SFEG,57.574137,-1.849078,No
ST FERGUS MOBIL,SFEM,57.565719,-1.880487,No
ST FERGUS VSD,SFEV,57.565719,-1.880487,No
ST FILLANS,SFIL,56.39590817,-4.11709879,No
SIGHTHILL,SIGH,55.92899198,-3.30500698,No
SOUTH KYLE,SOKY,57.28098159,-5.70974152,No
STRATHY COLLECTOR STATION,STCS,58.27750105,-6.30833555,No
STORNOWAY,STOR,58.20332362,-6.37365812,No
STRATH BRORA WIND,STRB,58.020209,-3.875536,No
TEVIOT,TEVI,56.34538216,-3.54606632,No
THANET WIND ONSHORE,THAW,51.36791428,1.38876161,No
THANET WIND OFFSHORE,THOW,51.36791428,1.38876161,No
TRALORG,TRLO,55.234544,-4.788968,No
TUMMEL BRIDGE,TUMB,56.706809,-4.029493,No
TWINEHAM ONSHORE,TWNE,51.42818113,-0.3086703,No
WESTFIELD BOUNDARY,WFIB,56.163611,-3.302635,No
WHITELAW BRAE,WHBR,60.40159911,-1.34794856,No
WHISTLEFIELD BORDER,WHTB,56.089591,-4.840147,No
